{
	"MBKS001": {
		"council_code": "KCH_MBKS",
		"pass_group_code": "SP_KCH_MBKS_077",
		"name": "Jalan Song Thian Cheok",
		"lat": "1.555002",
		"lng": "110.353414",
		"contact_number": "",
		"img_arr": [],
		"self_parking_rate": false,
		"allow_compound": true,
		"customer_visibility": true,
		"total_parking_spaces": 283,
		"status": "ACTIVE"
	},
	"MBKS002": {
		"council_code": "KCH_MBKS",
		"pass_group_code": "SP_KCH_MBKS_086",
		"name": "Jalan Petanak (Wisma N. Horizon 1 & 2)",
		"lat": "1.554858",
		"lng": "110.362813",
		"contact_number": "",
		"img_arr": [],
		"self_parking_rate": false,
		"allow_compound": true,
		"customer_visibility": true,
		"total_parking_spaces": 335,
		"status": "ACTIVE"
	},
	"MBKS003": {
		"council_code": "KCH_MBKS",
		"pass_group_code": null,
		"name": "Jalan Chan Chin Ann",
		"lat": "1.557154",
		"lng": "110.354733",
		"contact_number": "",
		"img_arr": [],
		"self_parking_rate": false,
		"allow_compound": true,
		"customer_visibility": true,
		"total_parking_spaces": 231,
		"status": "ACTIVE"
	},
	"MBKS004": {
		"council_code": "KCH_MBKS",
		"pass_group_code": null,
		"name": "Jalan Tabuan (Teochew Association)",
		"lat": "1.549109",
		"lng": "110.351533",
		"contact_number": "",
		"img_arr": [],
		"self_parking_rate": false,
		"allow_compound": true,
		"customer_visibility": true,
		"total_parking_spaces": 66,
		"status": "ACTIVE"
	},
	"MBKS005": {
		"council_code": "KCH_MBKS",
		"pass_group_code": "SP_KCH_MBKS_031",
		"name": "Jalan Datuk Wee Kheng Chiang",
		"lat": "1.552703",
		"lng": "110.363052",
		"contact_number": "",
		"img_arr": [],
		"self_parking_rate": false,
		"allow_compound": true,
		"customer_visibility": true,
		"total_parking_spaces": 288,
		"status": "ACTIVE"
	},
	"MBKS006": {
		"council_code": "KCH_MBKS",
		"pass_group_code": "SP_KCH_MBKS_029",
		"name": "Jalan Ang Cheng Ho",
		"lat": "1.55332",
		"lng": "110.364178",
		"contact_number": "",
		"img_arr": [],
		"self_parking_rate": false,
		"allow_compound": true,
		"customer_visibility": true,
		"total_parking_spaces": 868,
		"status": "ACTIVE"
	},
	"MBKS007": {
		"council_code": "KCH_MBKS",
		"pass_group_code": "SP_KCH_MBKS_087",
		"name": "Jalan Simpang Tiga",
		"lat": "1.535444",
		"lng": "110.35681",
		"contact_number": "",
		"img_arr": [],
		"self_parking_rate": false,
		"allow_compound": true,
		"customer_visibility": true,
		"total_parking_spaces": 439,
		"status": "ACTIVE"
	},
	"MBKS008": {},
	"MBKS009": {
		"council_code": "KCH_MBKS",
		"pass_group_code": "SP_KCH_MBKS_058",
		"name": "Jalan Sekama",
		"lat": "1.547135",
		"lng": "110.365332",
		"contact_number": "",
		"img_arr": [],
		"self_parking_rate": false,
		"allow_compound": true,
		"customer_visibility": true,
		"total_parking_spaces": 459,
		"status": "ACTIVE"
	},
	"MBKS010": {
		"council_code": "KCH_MBKS",
		"pass_group_code": "SP_KCH_MBKS_088",
		"name": "Kenyalang Park",
		"lat": "1.538223",
		"lng": "110.363062",
		"contact_number": "",
		"img_arr": [],
		"self_parking_rate": false,
		"allow_compound": true,
		"customer_visibility": true,
		"total_parking_spaces": 325,
		"status": "ACTIVE"
	},
	"MBKS011": {
		"council_code": "KCH_MBKS",
		"pass_group_code": "SP_KCH_MBKS_074",
		"name": "Tabuan Jaya / Jalan Wan Alwi",
		"lat": "1.524822",
		"lng": "110.373033",
		"contact_number": "",
		"img_arr": [],
		"self_parking_rate": false,
		"allow_compound": true,
		"customer_visibility": true,
		"total_parking_spaces": 362,
		"status": "ACTIVE"
	},
	"MBKS012": {
		"council_code": "KCH_MBKS",
		"pass_group_code": "SP_KCH_MBKS_020",
		"name": "Jalan Chan Bee Kiew",
		"lat": "1.550977",
		"lng": "110.367295",
		"contact_number": "",
		"img_arr": [],
		"self_parking_rate": false,
		"allow_compound": true,
		"customer_visibility": true,
		"total_parking_spaces": 362,
		"status": "INACTIVE"
	},
	"MBKS013": {
		"council_code": "KCH_MBKS",
		"pass_group_code": "SP_KCH_MBKS_020",
		"name": "Jalan Padungan (Kingwood Inn)",
		"lat": "1.552061",
		"lng": "110.36694",
		"contact_number": "",
		"img_arr": [],
		"self_parking_rate": false,
		"allow_compound": true,
		"customer_visibility": true,
		"total_parking_spaces": 81,
		"status": "INACTIVE"
	},
	"MBKS014": {
		"council_code": "KCH_MBKS",
		"pass_group_code": "SP_KCH_MBKS_009",
		"name": "Jalan Ban Hock",
		"lat": "1.553164",
		"lng": "110.35331",
		"contact_number": "",
		"img_arr": [],
		"self_parking_rate": false,
		"allow_compound": true,
		"customer_visibility": true,
		"total_parking_spaces": 394,
		"status": "ACTIVE"
	},
	"MBKS015": {
		"council_code": "KCH_MBKS",
		"pass_group_code": "SP_KCH_MBKS_082",
		"name": "Jalan Datuk Abang Abdul Rahim",
		"lat": "1.552877",
		"lng": "110.373561",
		"contact_number": "",
		"img_arr": [],
		"self_parking_rate": false,
		"allow_compound": true,
		"customer_visibility": true,
		"total_parking_spaces": 574,
		"status": "INACTIVE"
	},
	"MBKS016": {
		"council_code": "KCH_MBKS",
		"pass_group_code": "SP_KCH_MBKS_021",
		"name": "Jalan Padungan",
		"lat": "1.551202",
		"lng": "110.367736",
		"contact_number": "",
		"img_arr": [],
		"self_parking_rate": false,
		"allow_compound": true,
		"customer_visibility": true,
		"total_parking_spaces": 370,
		"status": "ACTIVE"
	},
	"MBKS017": {
		"council_code": "KCH_MBKS",
		"pass_group_code": "SP_KCH_MBKS_003",
		"name": "Song Kheng Hai Grd. Carpark",
		"lat": "1.5550330",
		"lng": "110.355773",
		"contact_number": "",
		"img_arr": [],
		"self_parking_rate": false,
		"allow_compound": true,
		"customer_visibility": true,
		"total_parking_spaces": 156,
		"status": "ACTIVE"
	},
	"MBKS018": {
		"council_code": "KCH_MBKS",
		"pass_group_code": "SP_KCH_MBKS_055",
		"name": "Jalan Batu Lintang",
		"lat": "1.534761",
		"lng": "110.344829",
		"contact_number": "",
		"img_arr": [],
		"self_parking_rate": false,
		"allow_compound": true,
		"customer_visibility": true,
		"total_parking_spaces": 65,
		"status": "ACTIVE"
	},
	"MBKS019": {
		"council_code": "KCH_MBKS",
		"pass_group_code": "SP_KCH_MBKS_083",
		"name": "Jalan Kenny Hill / Jalan Ong Tiang Swee",
		"lat": "1.527528",
		"lng": "110.353622",
		"contact_number": "",
		"img_arr": [],
		"self_parking_rate": false,
		"allow_compound": true,
		"customer_visibility": true,
		"total_parking_spaces": 78,
		"status": "ACTIVE"
	},
	"MBKS020": {
		"council_code": "KCH_MBKS",
		"pass_group_code": "SP_KCH_MBKS_013",
		"name": "Jalan Bukit Mata",
		"lat": "1.556655",
		"lng": "110.351097",
		"contact_number": "",
		"img_arr": [],
		"self_parking_rate": false,
		"allow_compound": true,
		"customer_visibility": true,
		"total_parking_spaces": 158,
		"status": "ACTIVE"
	},
	"MBKS021": {
		"council_code": "KCH_MBKS",
		"pass_group_code": "SP_KCH_MBKS_026",
		"name": "Jalan Sungai Padungan",
		"lat": "1.556447",
		"lng": "110.35874",
		"contact_number": "",
		"img_arr": [],
		"self_parking_rate": false,
		"allow_compound": true,
		"customer_visibility": true,
		"total_parking_spaces": 14,
		"status": "ACTIVE"
	},
	"MBKS022": {
		"council_code": "KCH_MBKS",
		"pass_group_code": null,
		"name": "Taman Padungan",
		"lat": "1.554623",
		"lng": "110.352671",
		"contact_number": "",
		"img_arr": [],
		"self_parking_rate": false,
		"allow_compound": true,
		"customer_visibility": true,
		"total_parking_spaces": 21,
		"status": "ACTIVE"
	},
	"MBKS023": {
		"council_code": "KCH_MBKS",
		"pass_group_code": "SP_KCH_MBKS_027",
		"name": "Jalan Tun Razak (Yoshi Square)",
		"lat": "1.552333",
		"lng": "110.388193",
		"contact_number": "",
		"img_arr": [],
		"self_parking_rate": false,
		"allow_compound": true,
		"customer_visibility": true,
		"total_parking_spaces": 327,
		"status": "ACTIVE"
	},
	"MBKS024": {
		"council_code": "KCH_MBKS",
		"pass_group_code": "SP_KCH_MBKS_002",
		"name": "Teck Guan Building",
		"lat": "1.556895",
		"lng": "110.35517",
		"contact_number": "",
		"img_arr": [],
		"self_parking_rate": false,
		"allow_compound": true,
		"customer_visibility": true,
		"total_parking_spaces": 54,
		"status": "ACTIVE"
	},
	"MBKS025": {
		"council_code": "KCH_MBKS",
		"pass_group_code": "SP_KCH_MBKS_024",
		"name": "Jalan Petanak / Bangunan Binamas",
		"lat": "1.555376",
		"lng": "110.361373",
		"contact_number": "",
		"img_arr": [],
		"self_parking_rate": false,
		"allow_compound": true,
		"customer_visibility": true,
		"total_parking_spaces": 479,
		"status": "ACTIVE"
	},
	"MBKS026": {
		"council_code": "KCH_MBKS",
		"pass_group_code": "SP_KCH_MBKS_084",
		"name": "2 1/2 mile, Rock Road, Twin Tower",
		"lat": "1.52353",
		"lng": "110.34074",
		"contact_number": "",
		"img_arr": [],
		"self_parking_rate": false,
		"allow_compound": true,
		"customer_visibility": true,
		"total_parking_spaces": 467,
		"status": "ACTIVE"
	},
	"MBKS027": {
		"council_code": "KCH_MBKS",
		"pass_group_code": "SP_KCH_MBKS_054",
		"name": "Hui Sing Commercial Centre",
		"lat": "1.513817",
		"lng": "110.345242",
		"contact_number": "",
		"img_arr": [],
		"self_parking_rate": false,
		"allow_compound": true,
		"customer_visibility": true,
		"total_parking_spaces": 334,
		"status": "ACTIVE"
	},
	"MBKS028": {
		"council_code": "KCH_MBKS",
		"pass_group_code": "SP_KCH_MBKS_036",
		"name": "2 1/2 Mile Rock Road Blk 16 KCLD",
		"lat": "1.527065",
		"lng": "110.341445",
		"contact_number": "",
		"img_arr": [],
		"self_parking_rate": false,
		"allow_compound": true,
		"customer_visibility": true,
		"total_parking_spaces": 156,
		"status": "ACTIVE"
	},
	"MBKS029": {
		"council_code": "KCH_MBKS",
		"pass_group_code": "SP_KCH_MBKS_011",
		"name": "Bormill Estate, Jalan Tun Ahmad Zaidi Adruce",
		"lat": "1.531333",
		"lng": "110.337571",
		"contact_number": "",
		"img_arr": [],
		"self_parking_rate": false,
		"allow_compound": true,
		"customer_visibility": true,
		"total_parking_spaces": 1012,
		"status": "ACTIVE"
	},
	"MBKS030": {
		"council_code": "KCH_MBKS",
		"pass_group_code": "SP_KCH_MBKS_015",
		"name": "Central Park Commercial Centre Phase 9",
		"lat": "1.525441",
		"lng": "110.337455",
		"contact_number": "",
		"img_arr": [],
		"self_parking_rate": false,
		"allow_compound": true,
		"customer_visibility": true,
		"total_parking_spaces": 375,
		"status": "ACTIVE"
	},
	"MBKS031": {
		"council_code": "KCH_MBKS",
		"pass_group_code": "SP_KCH_MBKS_032",
		"name": "Central Park Commercial Centre Phase 7",
		"lat": "1.522946",
		"lng": "110.337177",
		"contact_number": "",
		"img_arr": [],
		"self_parking_rate": false,
		"allow_compound": true,
		"customer_visibility": true,
		"total_parking_spaces": 104,
		"status": "INACTIVE"
	},
	"MBKS032": {
		"council_code": "KCH_MBKS",
		"pass_group_code": "SP_KCH_MBKS_051",
		"name": "Central Park Commercial Centre Phase 6",
		"lat": "1.522945",
		"lng": "110.339317",
		"contact_number": "",
		"img_arr": [],
		"self_parking_rate": false,
		"allow_compound": true,
		"customer_visibility": true,
		"total_parking_spaces": 395,
		"status": "ACTIVE"
	},
	"MBKS033": {},
	"MBKS034": {
		"council_code": "KCH_MBKS",
		"pass_group_code": "SP_KCH_MBKS_049",
		"name": "Bangunan Binamas, Jalan Padungan",
		"lat": "1.553467",
		"lng": "110.359769",
		"contact_number": "",
		"img_arr": [],
		"self_parking_rate": false,
		"allow_compound": true,
		"customer_visibility": true,
		"total_parking_spaces": 114,
		"status": "INACTIVE"
	},
	"MBKS035": {
		"council_code": "KCH_MBKS",
		"pass_group_code": "SP_KCH_MBKS_053",
		"name": "Golden Arch Commercial Centre",
		"lat": "1.52011",
		"lng": "110.336807",
		"contact_number": "",
		"img_arr": [],
		"self_parking_rate": false,
		"allow_compound": true,
		"customer_visibility": true,
		"total_parking_spaces": 78,
		"status": "ACTIVE"
	},
	"MBKS036": {
		"council_code": "KCH_MBKS",
		"pass_group_code": "SP_KCH_MBKS_067",
		"name": "King Centre / Tabuan Dayak / Queen's Court",
		"lat": "1.528773",
		"lng": "110.359463",
		"contact_number": "",
		"img_arr": [],
		"self_parking_rate": false,
		"allow_compound": true,
		"customer_visibility": true,
		"total_parking_spaces": 610,
		"status": "ACTIVE"
	},
	"MBKS037": {
		"council_code": "KCH_MBKS",
		"pass_group_code": "SP_KCH_MBKS_062",
		"name": "Jalan Wan Alwi",
		"lat": "1.527538",
		"lng": "110.370746",
		"contact_number": "",
		"img_arr": [],
		"self_parking_rate": false,
		"allow_compound": true,
		"customer_visibility": true,
		"total_parking_spaces": 115,
		"status": "INACTIVE"
	},
	"MBKS038": {
		"council_code": "KCH_MBKS",
		"pass_group_code": "SP_KCH_MBKS_033",
		"name": "Jalan Tun Ahmad Zaidi Adruce (Block 10)",
		"lat": "1.528868",
		"lng": "110.336763",
		"contact_number": "",
		"img_arr": [],
		"self_parking_rate": false,
		"allow_compound": true,
		"customer_visibility": true,
		"total_parking_spaces": 249,
		"status": "ACTIVE"
	},
	"MBKS039": {
		"council_code": "KCH_MBKS",
		"pass_group_code": "SP_KCH_MBKS_001",
		"name": "Timberland Medical Centre / Rock Road Lot 7493",
		"lat": "1.52162",
		"lng": "110.337802",
		"contact_number": "",
		"img_arr": [],
		"self_parking_rate": false,
		"allow_compound": true,
		"customer_visibility": true,
		"total_parking_spaces": 189,
		"status": "ACTIVE"
	},
	"MBKS040": {
		"council_code": "KCH_MBKS",
		"pass_group_code": "SP_KCH_MBKS_089",
		"name": "Kuching Specialist Hospital Commercial Centre, Jalan Setia Raja",
		"lat": "1.538427",
		"lng": "110.337033",
		"contact_number": "",
		"img_arr": [],
		"self_parking_rate": false,
		"allow_compound": true,
		"customer_visibility": true,
		"total_parking_spaces": 403,
		"status": "INACTIVE"
	},
	"MBKS041": {
		"council_code": "KCH_MBKS",
		"pass_group_code": "SP_KCH_MBKS_079",
		"name": "Jalan Rock (Eastmoore Commercial Centre)",
		"lat": "1.524443",
		"lng": "110.34243",
		"contact_number": "",
		"img_arr": [],
		"self_parking_rate": false,
		"allow_compound": true,
		"customer_visibility": true,
		"total_parking_spaces": 166,
		"status": "ACTIVE"
	},
	"MBKS042": {
		"council_code": "KCH_MBKS",
		"pass_group_code": "SP_KCH_MBKS_085",
		"name": "Jalan Laksamana Cheng Ho",
		"lat": "1.522141",
		"lng": "110.352231",
		"contact_number": "",
		"img_arr": [],
		"self_parking_rate": false,
		"allow_compound": true,
		"customer_visibility": true,
		"total_parking_spaces": 118,
		"status": "ACTIVE"
	},
	"MBKS043": {},
	"MBKS044": {
		"council_code": "KCH_MBKS",
		"pass_group_code": "SP_KCH_MBKS_037",
		"name": "Lorong Datuk Abang Abdul Rahim (Crown Square)",
		"lat": "1.550995",
		"lng": "110.369727",
		"contact_number": "",
		"img_arr": [],
		"self_parking_rate": false,
		"allow_compound": true,
		"customer_visibility": true,
		"total_parking_spaces": 256,
		"status": "INACTIVE"
	},
	"MBKS045": {
		"council_code": "KCH_MBKS",
		"pass_group_code": "SP_KCH_MBKS_078",
		"name": "Jalan Green (Opposite Wisma Saberkas)",
		"lat": "1.535705",
		"lng": "110.339967",
		"contact_number": "",
		"img_arr": [],
		"self_parking_rate": false,
		"allow_compound": true,
		"customer_visibility": true,
		"total_parking_spaces": 235,
		"status": "ACTIVE"
	},
	"MBKS046": {
		"council_code": "KCH_MBKS",
		"pass_group_code": "SP_KCH_MBKS_016",
		"name": "Green Heights",
		"lat": "1.502118",
		"lng": "110.347731",
		"contact_number": "",
		"img_arr": [],
		"self_parking_rate": false,
		"allow_compound": true,
		"customer_visibility": true,
		"total_parking_spaces": 429,
		"status": "ACTIVE"
	},
	"MBKS047": {
		"council_code": "KCH_MBKS",
		"pass_group_code": "SP_KCH_MBKS_004",
		"name": "RH Plaza",
		"lat": "1.503881",
		"lng": "110.350947",
		"contact_number": "",
		"img_arr": [],
		"self_parking_rate": false,
		"allow_compound": true,
		"customer_visibility": true,
		"total_parking_spaces": 686,
		"status": "ACTIVE"
	},
	"MBKS048": {},
	"MBKS049": {
		"council_code": "KCH_MBKS",
		"pass_group_code": "SP_KCH_MBKS_067",
		"name": "Queen's Court Commercial Centre",
		"lat": "1.528572",
		"lng": "110.361518",
		"contact_number": "",
		"img_arr": [],
		"self_parking_rate": false,
		"allow_compound": true,
		"customer_visibility": true,
		"total_parking_spaces": 309,
		"status": "INACTIVE"
	},
	"MBKS050": {
		"council_code": "KCH_MBKS",
		"pass_group_code": "SP_KCH_MBKS_012",
		"name": "Bormill Commercial Centre",
		"lat": "1.529468",
		"lng": "110.337558",
		"contact_number": "",
		"img_arr": [],
		"self_parking_rate": false,
		"allow_compound": true,
		"customer_visibility": true,
		"total_parking_spaces": 262,
		"status": "ACTIVE"
	},
	"MBKS051": {
		"council_code": "KCH_MBKS",
		"pass_group_code": "SP_KCH_MBKS_089",
		"name": "Stutong Commercial Centre, Jalan Canna / Old KPJ",
		"lat": "1.518972",
		"lng": "110.380588",
		"contact_number": "",
		"img_arr": [],
		"self_parking_rate": false,
		"allow_compound": true,
		"customer_visibility": true,
		"total_parking_spaces": 376,
		"status": "ACTIVE"
	},
	"MBKS052": {
		"council_code": "KCH_MBKS",
		"pass_group_code": "SP_KCH_MBKS_072",
		"name": "Song Plaza and Brighton Square Commercial Centre",
		"lat": "1.522263",
		"lng": "110.355573",
		"contact_number": "",
		"img_arr": [],
		"self_parking_rate": false,
		"allow_compound": true,
		"customer_visibility": true,
		"total_parking_spaces": 506,
		"status": "ACTIVE"
	},
	"MBKS053": {},
	"MBKS054": {
		"council_code": "KCH_MBKS",
		"pass_group_code": "SP_KCH_MBKS_070",
		"name": "One Jaya Commercial Centre",
		"lat": "1.518237",
		"lng": "110.366171",
		"contact_number": "",
		"img_arr": [],
		"self_parking_rate": false,
		"allow_compound": true,
		"customer_visibility": true,
		"total_parking_spaces": 692,
		"status": "ACTIVE"
	},
	"MBKS055": {
		"council_code": "KCH_MBKS",
		"pass_group_code": "SP_KCH_MBKS_028",
		"name": "Jalan Tun Jugah Premier 101",
		"lat": "1.516645",
		"lng": "110.354045",
		"contact_number": "",
		"img_arr": [],
		"self_parking_rate": false,
		"allow_compound": true,
		"customer_visibility": true,
		"total_parking_spaces": 648,
		"status": "ACTIVE"
	},
	"MBKS056": {
		"council_code": "KCH_MBKS",
		"pass_group_code": "SP_KCH_MBKS_010",
		"name": "BDC Commercial Centre",
		"lat": "1.507498",
		"lng": "110.361116",
		"contact_number": "",
		"img_arr": [],
		"self_parking_rate": false,
		"allow_compound": true,
		"customer_visibility": true,
		"total_parking_spaces": 672,
		"status": "ACTIVE"
	},
	"MBKS057": {
		"council_code": "KCH_MBKS",
		"pass_group_code": "SP_KCH_MBKS_068",
		"name": "Milan Square Jalan Wan Alwi",
		"lat": "1.528131",
		"lng": "110.370787",
		"contact_number": "",
		"img_arr": [],
		"self_parking_rate": false,
		"allow_compound": true,
		"customer_visibility": true,
		"total_parking_spaces": 477,
		"status": "ACTIVE"
	},
	"MBKS058": {
		"council_code": "KCH_MBKS",
		"pass_group_code": "SP_KCH_MBKS_052",
		"name": "Gala City",
		"lat": "1.511627",
		"lng": "110.353081",
		"contact_number": "",
		"img_arr": [],
		"self_parking_rate": false,
		"allow_compound": true,
		"customer_visibility": true,
		"total_parking_spaces": 1214,
		"status": "ACTIVE"
	},
	"MBKS059": {
		"council_code": "KCH_MBKS",
		"pass_group_code": "SP_KCH_MBKS_008",
		"name": "Jalan Tabuan (Chong Lin Park) Kuching",
		"lat": "1.545312",
		"lng": "110.35506",
		"contact_number": "",
		"img_arr": [],
		"self_parking_rate": false,
		"allow_compound": true,
		"customer_visibility": true,
		"total_parking_spaces": 716,
		"status": "ACTIVE"
	},
	"MBKS060": {
		"council_code": "KCH_MBKS",
		"pass_group_code": "SP_KCH_MBKS_005",
		"name": "Wisma Soon Lien Hong, 3rd Mile Taman Timberland Kuching",
		"lat": "1.519821",
		"lng": "110.338632",
		"contact_number": "",
		"img_arr": [],
		"self_parking_rate": false,
		"allow_compound": true,
		"customer_visibility": true,
		"total_parking_spaces": 89,
		"status": "ACTIVE"
	},
	"MBKS061": {
		"council_code": "KCH_MBKS",
		"pass_group_code": "SP_KCH_MBKS_007",
		"name": "Saradise Commercial Centre",
		"lat": "1.505217",
		"lng": "110.361891",
		"contact_number": "",
		"img_arr": [],
		"self_parking_rate": false,
		"allow_compound": true,
		"customer_visibility": true,
		"total_parking_spaces": 1386,
		"status": "ACTIVE"
	},
	"MBKS062": {},
	"MBKS063": {},
	"MBKS064": {
		"council_code": "KCH_MBKS",
		"pass_group_code": "SP_KCH_MBKS_006",
		"name": "Tabuan Tranquility 3, Jalan Canna",
		"lat": "1.513602",
		"lng": "110.392782",
		"contact_number": "",
		"img_arr": [],
		"self_parking_rate": false,
		"allow_compound": true,
		"customer_visibility": true,
		"total_parking_spaces": 2344,
		"status": "ACTIVE"
	},
	"MBKS065": {
		"council_code": "KCH_MBKS",
		"pass_group_code": null,
		"name": "Jalan Batu Lintang (Chai Aircon)",
		"lat": "1.540059",
		"lng": "110.355474",
		"contact_number": "",
		"img_arr": [],
		"self_parking_rate": false,
		"allow_compound": true,
		"customer_visibility": true,
		"total_parking_spaces": 999,
		"status": "ACTIVE"
	},
	"MBKS066": {
		"council_code": "KCH_MBKS",
		"pass_group_code": "SP_KCH_MBKS_075",
		"name": "Yun Phing Building",
		"lat": "1.552742",
		"lng": "110.360211",
		"contact_number": "",
		"img_arr": [],
		"self_parking_rate": false,
		"allow_compound": true,
		"customer_visibility": true,
		"total_parking_spaces": 999,
		"status": "ACTIVE"
	},
	"MBKS067": {
		"council_code": "KCH_MBKS",
		"pass_group_code": null,
		"name": "Jubilee Ground Carpark",
		"lat": "1.550502",
		"lng": "110.360495",
		"contact_number": "",
		"img_arr": [],
		"self_parking_rate": false,
		"allow_compound": true,
		"customer_visibility": true,
		"total_parking_spaces": 64,
		"status": "ACTIVE"
	},
	"MBKS068": {
		"council_code": "KCH_MBKS",
		"pass_group_code": "SP_KCH_MBKS_019",
		"name": "Jalan Deshon / Ban Hock",
		"lat": "1.553164",
		"lng": "110.35331",
		"contact_number": "",
		"img_arr": [],
		"self_parking_rate": false,
		"allow_compound": true,
		"customer_visibility": true,
		"total_parking_spaces": 100,
		"status": "ACTIVE"
	},
	"MBKS069": {
		"council_code": "KCH_MBKS",
		"pass_group_code": "SP_KCH_MBKS_023",
		"name": "Jalan Padungan (Public Bank)",
		"lat": "1.551011",
		"lng": "110.367188",
		"contact_number": "",
		"img_arr": [],
		"self_parking_rate": false,
		"allow_compound": true,
		"customer_visibility": true,
		"total_parking_spaces": 370,
		"status": "ACTIVE"
	},
	"MBKS070": {},
	"MBKS071": {
		"council_code": "KCH_MBKS",
		"pass_group_code": "SP_KCH_MBKS_067",
		"name": "Jalan Tabuan Dayak (Peters Special)",
		"lat": "1.527121",
		"lng": "110.360775",
		"contact_number": "",
		"img_arr": [],
		"self_parking_rate": false,
		"allow_compound": true,
		"customer_visibility": true,
		"total_parking_spaces": 100,
		"status": "INACTIVE"
	},
	"MBKS072": {
		"council_code": "KCH_MBKS",
		"pass_group_code": "SP_KCH_MBKS_061",
		"name": "Jalan Tun Jugah Commercial Centre",
		"lat": "1.557049",
		"lng": "110.353138",
		"contact_number": "",
		"img_arr": [],
		"self_parking_rate": false,
		"allow_compound": true,
		"customer_visibility": true,
		"total_parking_spaces": 509,
		"status": "ACTIVE"
	},
	"MBKS073": {
		"council_code": "KCH_MBKS",
		"pass_group_code": "SP_KCH_MBKS_069",
		"name": "Pending / Sekama",
		"lat": "1.550755",
		"lng": "110.377248",
		"contact_number": "",
		"img_arr": [],
		"self_parking_rate": false,
		"allow_compound": true,
		"customer_visibility": true,
		"total_parking_spaces": 262,
		"status": "ACTIVE"
	},
	"MBKS074": {
		"council_code": "KCH_MBKS",
		"pass_group_code": "SP_KCH_MBKS_032",
		"name": "3rd Mile, Rock Road",
		"lat": "1.523064",
		"lng": "110.33955",
		"contact_number": "",
		"img_arr": [],
		"self_parking_rate": false,
		"allow_compound": true,
		"customer_visibility": true,
		"total_parking_spaces": 100,
		"status": "INACTIVE"
	},
	"MBKS075": {
		"council_code": "KCH_MBKS",
		"pass_group_code": "SP_KCH_MBKS_090",
		"name": "Jalan Abell Utara",
		"lat": "1.556637",
		"lng": "110.357399",
		"contact_number": "",
		"img_arr": [],
		"self_parking_rate": false,
		"allow_compound": true,
		"customer_visibility": true,
		"total_parking_spaces": 100,
		"status": "ACTIVE"
	},
	"MBKS076": {
		"council_code": "KCH_MBKS",
		"pass_group_code": "SP_KCH_MBKS_032",
		"name": "Jalan Tun Ahmad Zaidi Adruce Comercial center / Phase 7 / 3rd Mile Rock Road",
		"lat": "1.538427",
		"lng": "110.337033",
		"contact_number": "",
		"img_arr": [],
		"self_parking_rate": false,
		"allow_compound": true,
		"customer_visibility": true,
		"total_parking_spaces": 353,
		"status": "ACTIVE"
	},
	"MBKS077": {
		"council_code": "KCH_MBKS",
		"pass_group_code": "SP_KCH_MBKS_037",
		"name": "Lorong Datuk Abang Abdul Rahim 10 (Celcom)",
		"lat": "1.549929",
		"lng": "110.369353",
		"contact_number": "",
		"img_arr": [],
		"self_parking_rate": false,
		"allow_compound": true,
		"customer_visibility": true,
		"total_parking_spaces": 100,
		"status": "INACTIVE"
	},
	"MBKS078": {
		"council_code": "KCH_MBKS",
		"pass_group_code": "SP_KCH_MBKS_081",
		"name": "Jalan Tunku Abdul Rahman (Pansar)",
		"lat": "1.557278",
		"lng": "110.355699",
		"contact_number": "",
		"img_arr": [],
		"self_parking_rate": false,
		"allow_compound": true,
		"customer_visibility": true,
		"total_parking_spaces": 100,
		"status": "ACTIVE"
	},
	"MBKS079": {
		"council_code": "KCH_MBKS",
		"pass_group_code": "SP_KCH_MBKS_082",
		"name": "Jalan Datuk Abang Abdul Rahim 5",
		"lat": "1.552892",
		"lng": "110.367473",
		"contact_number": "",
		"img_arr": [],
		"self_parking_rate": false,
		"allow_compound": true,
		"customer_visibility": true,
		"total_parking_spaces": 100,
		"status": "ACTIVE"
	},
	"MBKS080": {
		"council_code": "KCH_MBKS",
		"pass_group_code": "SP_KCH_MBKS_020",
		"name": "Jalan Chan Bee Kiew / Jalan Padungan (Kingwood Inn)",
		"lat": "1.551446",
		"lng": "110.367535",
		"contact_number": "",
		"img_arr": [],
		"self_parking_rate": false,
		"allow_compound": true,
		"customer_visibility": true,
		"total_parking_spaces": 443,
		"status": "ACTIVE"
	},
	"MBKS081": {
		"council_code": "KCH_MBKS",
		"pass_group_code": "SP_KCH_MBKS_037",
		"name": "Lorong Datuk Abang Abdul Rahim 10 (Crown Square / Celcom)",
		"lat": "1.550813",
		"lng": "110.369574",
		"contact_number": "",
		"img_arr": [],
		"self_parking_rate": false,
		"allow_compound": true,
		"customer_visibility": true,
		"total_parking_spaces": 356,
		"status": "ACTIVE"
	},
	"DBKU001": {
		"council_code": "KCH_DBKU",
		"pass_group_code": "SP_KCH_DBKU_029",
		"name": "Jalan Astana",
		"lat": "1.573082",
		"lng": "110.338244",
		"contact_number": "",
		"img_arr": [],
		"self_parking_rate": false,
		"allow_compound": true,
		"customer_visibility": true,
		"total_parking_spaces": 155,
		"status": "ACTIVE"
	},
	"DBKU002": {
		"council_code": "KCH_DBKU",
		"pass_group_code": "SP_KCH_DBKU_024",
		"name": "Jalan Semarak / Jalan Matang (Upwell, Bemmers, Jabatan Pendaftaran Negara)",
		"lat": "1.5616360",
		"lng": "110.3190474",
		"contact_number": "",
		"img_arr": [],
		"self_parking_rate": false,
		"allow_compound": true,
		"customer_visibility": true,
		"total_parking_spaces": 354,
		"status": "INACTIVE"
	},
	"DBKU003": {
		"council_code": "KCH_DBKU",
		"pass_group_code": "SP_KCH_DBKU_053",
		"name": "Sejingkat / Demak Laut Industrial Park",
		"lat": "1.588670",
		"lng": "110.415858",
		"contact_number": "",
		"img_arr": [],
		"self_parking_rate": false,
		"allow_compound": true,
		"customer_visibility": true,
		"total_parking_spaces": 726,
		"status": "ACTIVE"
	},
	"DBKU004": {
		"council_code": "KCH_DBKU",
		"pass_group_code": null,
		"name": "Jalan Kulas",
		"lat": "1.554679",
		"lng": "110.335173",
		"contact_number": "",
		"img_arr": [],
		"self_parking_rate": false,
		"allow_compound": true,
		"customer_visibility": true,
		"total_parking_spaces": 201,
		"status": "INACTIVE"
	},
	"DBKU005": {
		"council_code": "KCH_DBKU",
		"pass_group_code": "SP_KCH_DBKU_052",
		"name": "Jalan Kulas / Satok (Agro Bank / Kaya & Toast / Al-Idrus Commercial Center)",
		"lat": "1.553751",
		"lng": "110.332593",
		"contact_number": "",
		"img_arr": [],
		"self_parking_rate": false,
		"allow_compound": true,
		"customer_visibility": true,
		"total_parking_spaces": 433,
		"status": "ACTIVE"
	},
	"DBKU006": {},
	"DBKU007": {},
	"DBKU008": {
		"council_code": "KCH_DBKU",
		"pass_group_code": "SP_KCH_DBKU_004",
		"name": "Jalan Satok / Rubber",
		"lat": "1.552229",
		"lng": "110.334130",
		"contact_number": "",
		"img_arr": [],
		"self_parking_rate": false,
		"allow_compound": true,
		"customer_visibility": true,
		"total_parking_spaces": 961,
		"status": "INACTIVE"
	},
	"DBKU009": {
		"council_code": "KCH_DBKU",
		"pass_group_code": "SP_KCH_DBKU_001",
		"name": "Jalan Rubber / Jalan Nanas (Excl lorong 7 & 9)",
		"lat": "1.549493",
		"lng": "110.336959",
		"contact_number": "",
		"img_arr": [],
		"self_parking_rate": false,
		"allow_compound": true,
		"customer_visibility": true,
		"total_parking_spaces": 837,
		"status": "ACTIVE"
	},
	"DBKU010": {
		"council_code": "KCH_DBKU",
		"pass_group_code": "SP_KCH_DBKU_013",
		"name": "Jalan Satok (Satok Parade / Bangunan PTBS / Pollarwood / Zecon)",
		"lat": "1.553904",
		"lng": "110.328834",
		"contact_number": "",
		"img_arr": [],
		"self_parking_rate": false,
		"allow_compound": true,
		"customer_visibility": true,
		"total_parking_spaces": 308,
		"status": "ACTIVE"
	},
	"DBKU011": {
		"council_code": "KCH_DBKU",
		"pass_group_code": "SP_KCH_DBKU_054",
		"name": "Jalan Green / Jalan Gold Jade / Sg Maong Hilir",
		"lat": "1.545267",
		"lng": "110.331867",
		"contact_number": "",
		"img_arr": [],
		"self_parking_rate": false,
		"allow_compound": true,
		"customer_visibility": true,
		"total_parking_spaces": 318,
		"status": "ACTIVE"
	},
	"DBKU012": {
		"council_code": "KCH_DBKU",
		"pass_group_code": "SP_KCH_DBKU_027",
		"name": "Sg Maong Hilir (Pasar Penjaja)",
		"lat": "1.541692",
		"lng": "110.315455",
		"contact_number": "",
		"img_arr": [],
		"self_parking_rate": false,
		"allow_compound": true,
		"customer_visibility": true,
		"total_parking_spaces": 333,
		"status": "ACTIVE"
	},
	"DBKU013": {
		"council_code": "KCH_DBKU",
		"pass_group_code": "SP_KCH_DBKU_033",
		"name": "Jalan Nagor / Tun Ahmad Zaidi Adruce / Badruddin",
		"lat": "1.552011",
		"lng": "110.338918",
		"contact_number": "",
		"img_arr": [],
		"self_parking_rate": false,
		"allow_compound": true,
		"customer_visibility": true,
		"total_parking_spaces": 150,
		"status": "ACTIVE"
	},
	"DBKU014": {
		"council_code": "KCH_DBKU",
		"pass_group_code": "SP_KCH_DBKU_045",
		"name": "Jalan Tun Ahmad Zaidi Adruce (Forda)",
		"lat": "1.536824",
		"lng": "110.336486",
		"contact_number": "",
		"img_arr": [],
		"self_parking_rate": false,
		"allow_compound": true,
		"customer_visibility": true,
		"total_parking_spaces": 135,
		"status": "INACTIVE"
	},
	"DBKU015": {
		"council_code": "KCH_DBKU",
		"pass_group_code": "SP_KCH_DBKU_006",
		"name": "Jalan P. Ramlee / Haji Taha",
		"lat": "1.554600",
		"lng": "110.339619",
		"contact_number": "",
		"img_arr": [],
		"self_parking_rate": false,
		"allow_compound": true,
		"customer_visibility": true,
		"total_parking_spaces": 464,
		"status": "ACTIVE"
	},
	"DBKU016": {
		"council_code": "KCH_DBKU",
		"pass_group_code": "SP_KCH_DBKU_036",
		"name": "Jalan Masjid (Poliklinik)",
		"lat": "1.557628",
		"lng": "110.34248",
		"contact_number": "",
		"img_arr": [],
		"self_parking_rate": false,
		"allow_compound": true,
		"customer_visibility": true,
		"total_parking_spaces": 48,
		"status": "ACTIVE"
	},
	"DBKU017": {
		"council_code": "KCH_DBKU",
		"pass_group_code": "SP_KCH_DBKU_028",
		"name": "Jalan Haji Taha / Datuk Ajibah Abol (Thong Hin / Laila Inn / Muhandis)",
		"lat": "1.556773",
		"lng": "110.338025",
		"contact_number": "",
		"img_arr": [],
		"self_parking_rate": false,
		"allow_compound": true,
		"customer_visibility": true,
		"total_parking_spaces": 188,
		"status": "ACTIVE"
	},
	"DBKU018": {
		"council_code": "KCH_DBKU",
		"pass_group_code": null,
		"name": "Ban Hock Lane / Lebuh Gambir",
		"lat": "1.560473",
		"lng": "110.343813",
		"contact_number": "",
		"img_arr": [],
		"self_parking_rate": false,
		"allow_compound": true,
		"customer_visibility": true,
		"total_parking_spaces": 75,
		"status": "ACTIVE"
	},
	"DBKU019": {
		"council_code": "KCH_DBKU",
		"pass_group_code": null,
		"name": "Main Bazaar / Carpenter Street / China Street / Jalan Bishopgate / Ewe Hai Street",
		"lat": "1.55883",
		"lng": "110.347111",
		"contact_number": "",
		"img_arr": [],
		"self_parking_rate": false,
		"allow_compound": true,
		"customer_visibility": true,
		"total_parking_spaces": 179,
		"status": "ACTIVE"
	},
	"DBKU020": {
		"council_code": "KCH_DBKU",
		"pass_group_code": "SP_KCH_DBKU_050",
		"name": "Jalan Green Hill",
		"lat": "1.556239",
		"lng": "110.348767",
		"contact_number": "",
		"img_arr": [],
		"self_parking_rate": false,
		"allow_compound": true,
		"customer_visibility": true,
		"total_parking_spaces": 121,
		"status": "ACTIVE"
	},
	"DBKU021": {
		"council_code": "KCH_DBKU",
		"pass_group_code": null,
		"name": "Jalan Tunku Abdul Rahman",
		"lat": "1.557676",
		"lng": "110.352871",
		"contact_number": "",
		"img_arr": [],
		"self_parking_rate": false,
		"allow_compound": true,
		"customer_visibility": true,
		"total_parking_spaces": 999,
		"status": "ACTIVE"
	},
	"DBKU022": {
		"council_code": "KCH_DBKU",
		"pass_group_code": null,
		"name": "Open Air Market Carparks",
		"lat": "1.559479",
		"lng": "110.342421",
		"contact_number": "",
		"img_arr": [],
		"self_parking_rate": false,
		"allow_compound": true,
		"customer_visibility": true,
		"total_parking_spaces": 14,
		"status": "INACTIVE"
	},
	"DBKU023": {
		"council_code": "KCH_DBKU",
		"pass_group_code": "SP_KCH_DBKU_030",
		"name": "Jalan Central Barat",
		"lat": "1.547487",
		"lng": "110.351131",
		"contact_number": "",
		"img_arr": [],
		"self_parking_rate": false,
		"allow_compound": true,
		"customer_visibility": true,
		"total_parking_spaces": 109,
		"status": "ACTIVE"
	},
	"DBKU024": {
		"council_code": "KCH_DBKU",
		"pass_group_code": "SP_KCH_DBKU_002",
		"name": "Jalan Rubber (Lorong 7 & 9)",
		"lat": "1.550719",
		"lng": "110.334655",
		"contact_number": "",
		"img_arr": [],
		"self_parking_rate": false,
		"allow_compound": true,
		"customer_visibility": true,
		"total_parking_spaces": 999,
		"status": "ACTIVE"
	},
	"DBKU025": {
		"council_code": "KCH_DBKU",
		"pass_group_code": null,
		"name": "Jalan Tunku Abdul Rahman / Jalan Abell",
		"lat": "1.5571181",
		"lng": "110.354313",
		"contact_number": "",
		"img_arr": [],
		"self_parking_rate": false,
		"allow_compound": true,
		"customer_visibility": true,
		"total_parking_spaces": 37,
		"status": "ACTIVE"
	},
	"DBKU026": {
		"council_code": "KCH_DBKU",
		"pass_group_code": null,
		"name": "Jalan Tunku Abdul Rahman (Hilton)",
		"lat": "1.557271",
		"lng": "110.350511",
		"contact_number": "",
		"img_arr": [],
		"self_parking_rate": false,
		"allow_compound": true,
		"customer_visibility": true,
		"total_parking_spaces": 19,
		"status": "ACTIVE"
	},
	"DBKU027": {
		"council_code": "KCH_DBKU",
		"pass_group_code": "SP_KCH_DBKU_020",
		"name": "Jalan Satok (Wisma Lim Kim Soon)",
		"lat": "1.553185",
		"lng": "110.330067",
		"contact_number": "",
		"img_arr": [],
		"self_parking_rate": false,
		"allow_compound": true,
		"customer_visibility": true,
		"total_parking_spaces": 73,
		"status": "INACTIVE"
	},
	"DBKU028": {},
	"DBKU029": {},
	"DBKU030": {
		"council_code": "KCH_DBKU",
		"pass_group_code": "SP_KCH_DBKU_020",
		"name": "Jalan Green (Bernas / Smart Reader)",
		"lat": "1.549752",
		"lng": "110.321859",
		"contact_number": "",
		"img_arr": [],
		"self_parking_rate": false,
		"allow_compound": true,
		"customer_visibility": true,
		"total_parking_spaces": 71,
		"status": "INACTIVE"
	},
	"DBKU031": {},
	"DBKU032": {
		"council_code": "KCH_DBKU",
		"pass_group_code": "SP_KCH_DBKU_023",
		"name": "Jalan Nanas Barat (Unaco)",
		"lat": "1.549733",
		"lng": "110.323565",
		"contact_number": "",
		"img_arr": [],
		"self_parking_rate": false,
		"allow_compound": true,
		"customer_visibility": true,
		"total_parking_spaces": 65,
		"status": "ACTIVE"
	},
	"DBKU033": {
		"council_code": "KCH_DBKU",
		"pass_group_code": "SP_KCH_DBKU_045",
		"name": "Jalan Sungai Maong Ulu (Kesihatan)",
		"lat": "1.534060",
		"lng": "110.336547",
		"contact_number": "",
		"img_arr": [],
		"self_parking_rate": false,
		"allow_compound": true,
		"customer_visibility": true,
		"total_parking_spaces": 22,
		"status": "INACTIVE"
	},
	"DBKU034": {
		"council_code": "KCH_DBKU",
		"pass_group_code": "SP_KCH_DBKU_047",
		"name": "Jalan Batu Lintang (Runa Tuition School)",
		"lat": "1.537339",
		"lng": "110.349338",
		"contact_number": "",
		"img_arr": [],
		"self_parking_rate": false,
		"allow_compound": true,
		"customer_visibility": true,
		"total_parking_spaces": 24,
		"status": "ACTIVE"
	},
	"DBKU035": {
		"council_code": "KCH_DBKU",
		"pass_group_code": "SP_KCH_DBKU_049",
		"name": "Jalan Tabuan (Westwood)",
		"lat": "1.544123",
		"lng": "110.353911",
		"contact_number": "",
		"img_arr": [],
		"self_parking_rate": false,
		"allow_compound": true,
		"customer_visibility": true,
		"total_parking_spaces": 72,
		"status": "ACTIVE"
	},
	"DBKU036": {
		"council_code": "KCH_DBKU",
		"pass_group_code": "SP_KCH_DBKU_004",
		"name": "Jalan Rubber (Klinik Harmon Rithom)",
		"lat": "1.551927",
		"lng": "110.333911",
		"contact_number": "",
		"img_arr": [],
		"self_parking_rate": false,
		"allow_compound": true,
		"customer_visibility": true,
		"total_parking_spaces": 100,
		"status": "INACTIVE"
	},
	"DBKU037": {
		"council_code": "KCH_DBKU",
		"pass_group_code": "SP_KCH_DBKU_004",
		"name": "Jalan Satok (Hartz Chicken)",
		"lat": "1.552965",
		"lng": "110.333767",
		"contact_number": "",
		"img_arr": [],
		"self_parking_rate": false,
		"allow_compound": true,
		"customer_visibility": true,
		"total_parking_spaces": 189,
		"status": "INACTIVE"
	},
	"DBKU038": {
		"council_code": "KCH_DBKU",
		"pass_group_code": "SP_KCH_DBKU_007",
		"name": "Jalan Satok Kulas / Flyover",
		"lat": "1.553063",
		"lng": "110.338221",
		"contact_number": "",
		"img_arr": [],
		"self_parking_rate": false,
		"allow_compound": true,
		"customer_visibility": true,
		"total_parking_spaces": 125,
		"status": "ACTIVE"
	},
	"DBKU039": {
		"council_code": "KCH_DBKU",
		"pass_group_code": "SP_KCH_DBKU_012",
		"name": "Jalan Kulas (Wisma Ung Hwa Geok) GN",
		"lat": "1.554477",
		"lng": "110.336562",
		"contact_number": "",
		"img_arr": [],
		"self_parking_rate": false,
		"allow_compound": true,
		"customer_visibility": true,
		"total_parking_spaces": 39,
		"status": "INACTIVE"
	},
	"DBKU040": {
		"council_code": "KCH_DBKU",
		"pass_group_code": "SP_KCH_DBKU_012",
		"name": "Jalan Kulas (Back Lane / RHB Bank)",
		"lat": "1.554411",
		"lng": "110.332291",
		"contact_number": "",
		"img_arr": [],
		"self_parking_rate": false,
		"allow_compound": true,
		"customer_visibility": true,
		"total_parking_spaces": 79,
		"status": "INACTIVE"
	},
	"DBKU041": {
		"council_code": "KCH_DBKU",
		"pass_group_code": "SP_KCH_DBKU_012",
		"name": "Jalan Kulas (Bangunan Tunku Muhammad Al Idrus)",
		"lat": "1.554298",
		"lng": "110.335427",
		"contact_number": "",
		"img_arr": [],
		"self_parking_rate": false,
		"allow_compound": true,
		"customer_visibility": true,
		"total_parking_spaces": 83,
		"status": "INACTIVE"
	},
	"DBKU042": {},
	"DBKU043": {
		"council_code": "KCH_DBKU",
		"pass_group_code": "SP_KCH_DBKU_018",
		"name": "Jalan Badruddin",
		"lat": "1.548674",
		"lng": "110.339547",
		"contact_number": "",
		"img_arr": [],
		"self_parking_rate": false,
		"allow_compound": true,
		"customer_visibility": true,
		"total_parking_spaces": 100,
		"status": "ACTIVE"
	},
	"DBKU044": {},
	"DBKU045": {},
	"DBKU046": {},
	"DBKU047": {
		"council_code": "KCH_DBKU",
		"pass_group_code": "SP_KCH_DBKU_020",
		"name": "Jalan Green (Bangunan Sandhu)",
		"lat": "1.551706",
		"lng": "110.330485",
		"contact_number": "",
		"img_arr": [],
		"self_parking_rate": false,
		"allow_compound": true,
		"customer_visibility": true,
		"total_parking_spaces": 45,
		"status": "INACTIVE"
	},
	"DBKU048": {},
	"DBKU049": {
		"council_code": "KCH_DBKU",
		"pass_group_code": "SP_KCH_DBKU_054",
		"name": "Jalan Green",
		"lat": "1.543105",
		"lng": "110.332510",
		"contact_number": "",
		"img_arr": [],
		"self_parking_rate": false,
		"allow_compound": true,
		"customer_visibility": true,
		"total_parking_spaces": 150,
		"status": "INACTIVE"
	},
	"DBKU050": {
		"council_code": "KCH_DBKU",
		"pass_group_code": "SP_KCH_DBKU_054",
		"name": "Jalan Gold Jade",
		"lat": "1.545176",
		"lng": "110.331038",
		"contact_number": "",
		"img_arr": [],
		"self_parking_rate": false,
		"allow_compound": true,
		"customer_visibility": true,
		"total_parking_spaces": 71,
		"status": "INACTIVE"
	},
	"DBKU051": {
		"council_code": "KCH_DBKU",
		"pass_group_code": null,
		"name": "Kulas / Satok (Wisma Satok)",
		"lat": "1.553376",
		"lng": "110.335233",
		"contact_number": "",
		"img_arr": [],
		"self_parking_rate": false,
		"allow_compound": true,
		"customer_visibility": true,
		"total_parking_spaces": 313,
		"status": "ACTIVE"
	},
	"DBKU052": {
		"council_code": "KCH_DBKU",
		"pass_group_code": "SP_KCH_DBKU_015",
		"name": "Jalan Tun Ahmad Zaidi Adruce (Regalis Court / Perodua)",
		"lat": "1.552029",
		"lng": "110.337487",
		"contact_number": "",
		"img_arr": [],
		"self_parking_rate": false,
		"allow_compound": true,
		"customer_visibility": true,
		"total_parking_spaces": 66,
		"status": "ACTIVE"
	},
	"DBKU053": {
		"council_code": "KCH_DBKU",
		"pass_group_code": "SP_KCH_DBKU_051",
		"name": "Jalan P.Ramlee (Stamford College)",
		"lat": "1.555668",
		"lng": "110.340227",
		"contact_number": "",
		"img_arr": [],
		"self_parking_rate": false,
		"allow_compound": true,
		"customer_visibility": true,
		"total_parking_spaces": 249,
		"status": "INACTIVE"
	},
	"DBKU054": {
		"council_code": "KCH_DBKU",
		"pass_group_code": "SP_KCH_DBKU_024",
		"name": "Jalan Semarak (Kedai Adie, PJ Farmasi)",
		"lat": "1.565479",
		"lng": "110.318190",
		"contact_number": "",
		"img_arr": [],
		"self_parking_rate": false,
		"allow_compound": true,
		"customer_visibility": true,
		"total_parking_spaces": 46,
		"status": "INACTIVE"
	},
	"DBKU055": {
		"council_code": "KCH_DBKU",
		"pass_group_code": "SP_KCH_DBKU_006",
		"name": "Jalan Haji Taha (Unaco)",
		"lat": "1.556529",
		"lng": "110.338766",
		"contact_number": "",
		"img_arr": [],
		"self_parking_rate": false,
		"allow_compound": true,
		"customer_visibility": true,
		"total_parking_spaces": 249,
		"status": "ACTIVE"
	},
	"DBKU056": {
		"council_code": "KCH_DBKU",
		"pass_group_code": "SP_KCH_DBKU_012",
		"name": "Jalan Kulas (RHB Bank / Bangunan Tunku Muhammad Al Idrus / Wisma Ung Hwa Geok)",
		"lat": "1.554479",
		"lng": "110.335418",
		"contact_number": "",
		"img_arr": [],
		"self_parking_rate": false,
		"allow_compound": true,
		"customer_visibility": true,
		"total_parking_spaces": 201,
		"status": "ACTIVE"
	},
	"DBKU057": {
		"council_code": "KCH_DBKU",
		"pass_group_code": "SP_KCH_DBKU_020",
		"name": "Jalan Green (Bangunan Sandhu / Smart Reader) / Jalan Satok (Wisma Lim Kim Soon)",
		"lat": "1.552357",
		"lng": "110.330224",
		"contact_number": "",
		"img_arr": [],
		"self_parking_rate": false,
		"allow_compound": true,
		"customer_visibility": true,
		"total_parking_spaces": 189,
		"status": "ACTIVE"
	},
	"DBKU058": {
		"council_code": "KCH_DBKU",
		"pass_group_code": null,
		"name": "Sg. Maong Ulu (Power Cool Car Air-cond)",
		"lat": "1.533923",
		"lng": "110.336534",
		"contact_number": "",
		"img_arr": [],
		"self_parking_rate": false,
		"allow_compound": true,
		"customer_visibility": true,
		"total_parking_spaces": 28,
		"status": "ACTIVE"
	},
	"DBKU059": {
		"council_code": "KCH_DBKU",
		"pass_group_code": null,
		"name": "Jalan Tabuan (Borneo Hotel)",
		"lat": "1.554385",
		"lng": "110.348347",
		"contact_number": "",
		"img_arr": [],
		"self_parking_rate": false,
		"allow_compound": true,
		"customer_visibility": true,
		"total_parking_spaces": 11,
		"status": "ACTIVE"
	},
	"DBKU060": {
		"council_code": "KCH_DBKU",
		"pass_group_code": "SP_KCH_DBKU_024",
		"name": "Jalan Semarak (Bemmers / Kedai Adie, PJ Farmasi) / Jalan Matang (Upwell)",
		"lat": "1.556256",
		"lng": "110.349021",
		"contact_number": "",
		"img_arr": [],
		"self_parking_rate": false,
		"allow_compound": true,
		"customer_visibility": true,
		"total_parking_spaces": 354,
		"status": "ACTIVE"
	},
	"DBKU061": {
		"council_code": "KCH_DBKU",
		"pass_group_code": "SP_KCH_DBKU_045",
		"name": "Jalan Tun Ahmad Zaidi Adruce (Forda) / Jalan Sungai Maong Ulu (Kesihatan)",
		"lat": "1.536617",
		"lng": "110.336758",
		"contact_number": "",
		"img_arr": [],
		"self_parking_rate": false,
		"allow_compound": true,
		"customer_visibility": true,
		"total_parking_spaces": 157,
		"status": "ACTIVE"
	},
	"DBKU062": {
		"council_code": "KCH_DBKU",
		"pass_group_code": "SP_KCH_DBKU_004",
		"name": "Jalan Satok / Rubber (Hartz Chicken / Klinik Harmon Rithom)",
		"lat": "1.552173",
		"lng": "110.335482",
		"contact_number": "",
		"img_arr": [],
		"self_parking_rate": false,
		"allow_compound": true,
		"customer_visibility": true,
		"total_parking_spaces": 1316,
		"status": "ACTIVE"
	}
}